{
  "Items": [
    {
      "Home": {
        "Id": 76,
        "Name": "Bulgaria",
        "Lat": "42.733883",
        "Long": "25.48583"
      },
      "Host": {
        "Id": 49,
        "Name": "Germany",
        "Lat": "51.165691",
        "Long": "10.451526"
      },
      "Count": 2
    },
    {
      "Home": {
        "Id": 35,
        "Name": "The Netherlands",
        "Lat": "52.132633",
        "Long": "5.291265999999999"
      },
      "Host": {
        "Id": 69,
        "Name": "Sweden",
        "Lat": "60.12816100000001",
        "Long": "18.643501"
      },
      "Count": 3
    },
    {
      "Home": {
        "Id": 69,
        "Name": "Sweden",
        "Lat": "60.12816100000001",
        "Long": "18.643501"
      },
      "Host": {
        "Id": 35,
        "Name": "The Netherlands",
        "Lat": "52.132633",
        "Long": "5.291265999999999"
      },
      "Count": 2
    },
    {
      "Home": {
        "Id": 70,
        "Name": "Austria",
        "Lat": "47.516231",
        "Long": "14.550072"
      },
      "Host": {
        "Id": 42,
        "Name": "The United States",
        "Lat": "37.09024",
        "Long": "-95.712891"
      },
      "Count": 1
    },
    {
      "Home": {
        "Id": 49,
        "Name": "Germany",
        "Lat": "51.165691",
        "Long": "10.451526"
      },
      "Host": {
        "Id": 69,
        "Name": "Sweden",
        "Lat": "60.12816100000001",
        "Long": "18.643501"
      },
      "Count": 1
    },
    {
      "Home": {
        "Id": 35,
        "Name": "The Netherlands",
        "Lat": "52.132633",
        "Long": "5.291265999999999"
      },
      "Host": {
        "Id": 53,
        "Name": "Italy",
        "Lat": "41.87194",
        "Long": "12.56738"
      },
      "Count": 1
    },
    {
      "Home": {
        "Id": 61,
        "Name": "Spain",
        "Lat": "40.46366700000001",
        "Long": "-3.74922"
      },
      "Host": {
        "Id": 35,
        "Name": "The Netherlands",
        "Lat": "52.132633",
        "Long": "5.291265999999999"
      },
      "Count": 1
    },
    {
      "Home": {
        "Id": 35,
        "Name": "The Netherlands",
        "Lat": "52.132633",
        "Long": "5.291265999999999"
      },
      "Host": {
        "Id": 61,
        "Name": "Spain",
        "Lat": "40.46366700000001",
        "Long": "-3.74922"
      },
      "Count": 2
    },
    {
      "Home": {
        "Id": 37,
        "Name": "Australia",
        "Lat": "-25.274398",
        "Long": "133.775136"
      },
      "Host": {
        "Id": 35,
        "Name": "The Netherlands",
        "Lat": "52.132633",
        "Long": "5.291265999999999"
      },
      "Count": 1
    },
    {
      "Home": {
        "Id": 64,
        "Name": "Switzerland",
        "Lat": "46.818188",
        "Long": "8.227511999999999"
      },
      "Host": {
        "Id": 49,
        "Name": "Germany",
        "Lat": "51.165691",
        "Long": "10.451526"
      },
      "Count": 1
    },
    {
      "Home": {
        "Id": 48,
        "Name": "France",
        "Lat": "46.227638",
        "Long": "2.213749"
      },
      "Host": {
        "Id": 35,
        "Name": "The Netherlands",
        "Lat": "52.132633",
        "Long": "5.291265999999999"
      },
      "Count": 1
    },
    {
      "Home": {
        "Id": 35,
        "Name": "The Netherlands",
        "Lat": "52.132633",
        "Long": "5.291265999999999"
      },
      "Host": {
        "Id": 49,
        "Name": "Germany",
        "Lat": "51.165691",
        "Long": "10.451526"
      },
      "Count": 2
    },
    {
      "Home": {
        "Id": 49,
        "Name": "Germany",
        "Lat": "51.165691",
        "Long": "10.451526"
      },
      "Host": {
        "Id": 40,
        "Name": "Poland",
        "Lat": "51.919438",
        "Long": "19.145136"
      },
      "Count": 1
    },
    {
      "Home": {
        "Id": 36,
        "Name": "The United Kingdom",
        "Lat": "55.378051",
        "Long": "-3.435973"
      },
      "Host": {
        "Id": 35,
        "Name": "The Netherlands",
        "Lat": "52.132633",
        "Long": "5.291265999999999"
      },
      "Count": 2
    },
    {
      "Home": {
        "Id": 35,
        "Name": "The Netherlands",
        "Lat": "52.132633",
        "Long": "5.291265999999999"
      },
      "Host": {
        "Id": 48,
        "Name": "France",
        "Lat": "46.227638",
        "Long": "2.213749"
      },
      "Count": 3
    },
    {
      "Home": {
        "Id": 35,
        "Name": "The Netherlands",
        "Lat": "52.132633",
        "Long": "5.291265999999999"
      },
      "Host": {
        "Id": 64,
        "Name": "Switzerland",
        "Lat": "46.818188",
        "Long": "8.227511999999999"
      },
      "Count": 1
    },
    {
      "Home": {
        "Id": 49,
        "Name": "Germany",
        "Lat": "51.165691",
        "Long": "10.451526"
      },
      "Host": {
        "Id": 35,
        "Name": "The Netherlands",
        "Lat": "52.132633",
        "Long": "5.291265999999999"
      },
      "Count": 1
    },
    {
      "Home": {
        "Id": 43,
        "Name": "Belgium",
        "Lat": "50.503887",
        "Long": "4.469936"
      },
      "Host": {
        "Id": 35,
        "Name": "The Netherlands",
        "Lat": "52.132633",
        "Long": "5.291265999999999"
      },
      "Count": 1
    },
    {
      "Home": {
        "Id": 49,
        "Name": "Germany",
        "Lat": "51.165691",
        "Long": "10.451526"
      },
      "Host": {
        "Id": 44,
        "Name": "Canada",
        "Lat": "56.130366",
        "Long": "-106.346771"
      },
      "Count": 1
    },
    {
      "Home": {
        "Id": 48,
        "Name": "France",
        "Lat": "46.227638",
        "Long": "2.213749"
      },
      "Host": {
        "Id": 70,
        "Name": "Austria",
        "Lat": "47.516231",
        "Long": "14.550072"
      },
      "Count": 1
    },
    {
      "Home": {
        "Id": 50,
        "Name": "India",
        "Lat": "20.593684",
        "Long": "78.96288"
      },
      "Host": {
        "Id": 36,
        "Name": "The United Kingdom",
        "Lat": "55.378051",
        "Long": "-3.435973"
      },
      "Count": 1
    },
    {
      "Home": {
        "Id": 42,
        "Name": "The United States",
        "Lat": "37.09024",
        "Long": "-95.712891"
      },
      "Host": {
        "Id": 64,
        "Name": "Switzerland",
        "Lat": "46.818188",
        "Long": "8.227511999999999"
      },
      "Count": 1
    },
    {
      "Home": {
        "Id": 49,
        "Name": "Germany",
        "Lat": "51.165691",
        "Long": "10.451526"
      },
      "Host": {
        "Id": 46,
        "Name": "China",
        "Lat": "35.86166",
        "Long": "104.195397"
      },
      "Count": 2
    },
    {
      "Home": {
        "Id": 64,
        "Name": "Switzerland",
        "Lat": "46.818188",
        "Long": "8.227511999999999"
      },
      "Host": {
        "Id": 76,
        "Name": "Bulgaria",
        "Lat": "42.733883",
        "Long": "25.48583"
      },
      "Count": 2
    },
    {
      "Home": {
        "Id": 49,
        "Name": "Germany",
        "Lat": "51.165691",
        "Long": "10.451526"
      },
      "Host": {
        "Id": 50,
        "Name": "India",
        "Lat": "20.593684",
        "Long": "78.96288"
      },
      "Count": 1
    },
    {
      "Home": {
        "Id": 49,
        "Name": "Germany",
        "Lat": "51.165691",
        "Long": "10.451526"
      },
      "Host": {
        "Id": 37,
        "Name": "Australia",
        "Lat": "-25.274398",
        "Long": "133.775136"
      },
      "Count": 2
    },
    {
      "Home": {
        "Id": 35,
        "Name": "The Netherlands",
        "Lat": "52.132633",
        "Long": "5.291265999999999"
      },
      "Host": {
        "Id": 68,
        "Name": "Russia",
        "Lat": "61.52401",
        "Long": "105.318756"
      },
      "Count": 1
    },
    {
      "Home": {
        "Id": 35,
        "Name": "The Netherlands",
        "Lat": "52.132633",
        "Long": "5.291265999999999"
      },
      "Host": {
        "Id": 43,
        "Name": "Belgium",
        "Lat": "50.503887",
        "Long": "4.469936"
      },
      "Count": 1
    },
    {
      "Home": {
        "Id": 49,
        "Name": "Germany",
        "Lat": "51.165691",
        "Long": "10.451526"
      },
      "Host": {
        "Id": 91,
        "Name": "Taiwan",
        "Lat": "23.69781",
        "Long": "120.960515"
      },
      "Count": 2
    }
  ],
  "MaxCount": 3
}